{
  "metadata" : {
    "name" : "Ski trip",
    "desc" : "Winter trip to Killington",
    "units" : "km",
    "author" : {
      "name": "Furkot - road trip planner",
      "short_name": "Furkot",
      "email": {
        "id": "trips",
        "domain": "furkot.com"
      },
      "link": "https://trips.furkot.com"
    }
  },
  "routes" : [ {
  "points" : [
      {
        "day" : 0,
        "name" : "first",
        "coordinates" : {
          "lat" : 42.3584308,
          "lon" : -71.0597732
        },
        "locality" : {
          "town" : "Boston",
          "province" : "MA",
          "province_long" : "Massachusetts",
          "country" : "US",
          "country_long" : "United States"
        },
        "notes" : "",
        "address" : "Boston, MA",
        "visit_duration" : 0,
        "nights" : 0,
        "arrival_time" : 1366722000000,
        "departure_time" : 1366722000000
      },
      {
        "day" : 0,
        "name" : "with link",
        "coordinates" : {
          "lat" : 42.94989,
          "lon" : -71.43241
        },
        "address" : "736 Huse Road, Manchester, NH 03103, USA",
        "notes" : "",
        "locality" : {
          "town" : "Manchester",
          "province" : "NH",
          "province_long" : "New Hampshire",
          "country" : "US",
          "country_long" : "United States"
        },
        "visit_duration" : 0,
        "url" : "http://www.easytobook.com/en/united-states-of-america/new-hampshire/manchester/courtyard-by-marriott-manchester/?affid=280826683",
        "nights" : 0,
        "arrival_time" : 1366725319000,
        "departure_time" : 1366808400000
      },
      {
        "day" : 0,
        "name" : "pass thru",
        "coordinates" : {
          "lat" : 43.20517581723733,
          "lon" : -71.531982421875
        },
        "address" : "Frederick E. Everett Turnpike, Concord, NH 03301, USA",
        "notes" : "",
        "locality" : {
          "town" : "Concord",
          "province" : "NH",
          "province_long" : "New Hampshire",
          "country" : "US",
          "country_long" : "United States"
        },
        "visit_duration" : 0,
        "nights" : 0,
        "arrival_time" : 1366809873000,
        "departure_time" : 1366817073000
      },
      {
        "day" : 0,
        "name" : "with pin",
        "coordinates" : {
          "lat" : 42.94989,
          "lon" : -71.43241
        },
        "address" : "736 Huse Road, Manchester, NH 03103, USA",
        "notes" : "",
        "pin" : 43,
        "locality" : {
          "town" : "Manchester",
          "province" : "NH",
          "province_long" : "New Hampshire",
          "country" : "US",
          "country_long" : "United States"
        },
        "visit_duration" : 0,
        "nights" : 1,
        "arrival_time" : 1366818487000,
        "departure_time" : 1366902000000
      },
      {
        "day" : 0,
        "name" : "with pass thru pin",
        "coordinates" : {
          "lat" : 43.20517581723733,
          "lon" : -71.531982421875
        },
        "address" : "Frederick E. Everett Turnpike, Concord, NH 03301, USA",
        "notes" : "",
        "locality" : {
          "town" : "Concord",
          "province" : "NH",
          "province_long" : "New Hampshire",
          "country" : "US",
          "country_long" : "United States"
        },
        "visit_duration" : 0,
        "nights" : 0,
        "arrival_time" : 1366809873000,
        "departure_time" : 1366817073000
      },
      {
        "coordinates" : {
          "lat" : 42.94989,
          "lon" : -71.43241
        }
      },
      {
        "day" : 0,
        "name" : "last",
        "coordinates" : {
          "lat" : 43.6647222,
          "lon" : -72.79333329999997
        },
        "locality" : {
          "town" : "Killington",
          "province" : "VT",
          "province_long" : "Vermont",
          "country" : "US",
          "country_long" : "United States"
        },
        "phone" : "(508) 872-6101",
        "notes" : "",
        "address" : "Killington, VT",
        "visit_duration" : 0,
        "nights" : 0,
        "arrival_time" : 1366909309000,
        "departure_time" : 1366909309000
      } ]
  } ]
}